City_ID,City,Country,Max Temp,Description,Lat,Lng,Hotel Name
3,Mitsamiouli,KM,80.8,scattered clouds,-11.3847,43.2844,
7,Georgetown,MY,82.33,few clouds,5.4112,100.3354,
8,Aliaga,PH,85.5,clear sky,15.5167,120.8667,
10,Cayenne,GF,82.09,few clouds,4.9333,-52.3333,
12,Dingle,PH,82.58,overcast clouds,10.9995,122.6711,
26,Kavaratti,IN,85.24,overcast clouds,10.5669,72.642,
33,Bonthe,SL,76.64,moderate rain,7.5264,-12.505,
40,Marrakesh,MA,80.67,clear sky,31.6315,-8.0083,
42,Pasni,PK,82.65,clear sky,25.2631,63.471,
46,Victoria,HK,79.18,overcast clouds,22.2855,114.1577,
47,Kattivakkam,IN,84.29,heavy intensity rain,13.2167,80.3167,
58,Kovur,IN,79.77,moderate rain,14.4833,79.9833,
61,Salinopolis,BR,75.24,very heavy rain,-0.6136,-47.3561,
66,Hithadhoo,MV,84.6,broken clouds,-0.6,73.0833,
69,San Cristobal,VE,77.18,overcast clouds,7.7669,-72.225,
74,Bathsheba,BB,81.21,few clouds,13.2167,-59.5167,
78,Port-Gentil,GA,82.36,scattered clouds,-0.7193,8.7815,
79,Saint-Georges,GD,80.28,few clouds,12.0564,-61.7485,
83,Pucallpa,PE,87.84,few clouds,-8.3791,-74.5539,
96,Iralaya,HN,80.94,overcast clouds,15.0,-83.2333,
98,Gandorhun,SL,75.34,light rain,7.5,-11.8333,
100,Kyabe,TD,83.48,overcast clouds,9.4515,18.9449,
109,Axim,GH,80.42,overcast clouds,4.8699,-2.2405,
110,Kanniyakumari,IN,81.82,light rain,8.0833,77.5667,
112,Araouane,ML,80.04,clear sky,18.9048,-3.5265,
116,Anloga,GH,82.58,overcast clouds,5.7947,0.8973,
118,Natal,BR,77.22,few clouds,-5.795,-35.2094,
121,Bara,NG,77.9,overcast clouds,10.3744,10.7288,
123,Thinadhoo,MV,84.67,few clouds,0.5333,72.9333,
125,Puerto Ayacucho,VE,77.92,overcast clouds,5.6639,-67.6236,
130,Djibo,BF,86.31,clear sky,14.1022,-1.6306,
132,Umm Lajj,SA,83.12,overcast clouds,25.0213,37.2685,
133,Hingorja,PK,84.85,clear sky,27.2109,68.416,
136,Jucas,BR,75.7,scattered clouds,-6.5253,-39.5275,
137,Chabahar,IR,81.1,clear sky,25.2919,60.643,
138,Bengkulu,ID,78.26,overcast clouds,-3.8004,102.2655,
144,Port Blair,IN,83.17,overcast clouds,11.6667,92.75,
146,Hobyo,SO,82.29,overcast clouds,5.3505,48.5268,
151,Mogadishu,SO,81.07,overcast clouds,2.0371,45.3438,
155,Padang,ID,79.93,overcast clouds,-0.9492,100.3543,
156,Remanso,BR,81.28,broken clouds,-9.6179,-42.0831,
157,Laguna De Perlas,NI,84.29,few clouds,12.3429,-83.6712,
160,Bandarbeyla,SO,81.99,light rain,9.4942,50.8122,
161,Loandjili,CG,80.71,few clouds,-4.7561,11.8578,
162,Angul,IN,79.68,broken clouds,20.85,85.1,
168,Galle,LK,81.79,overcast clouds,6.0367,80.217,
170,Odweyne,SO,76.95,scattered clouds,9.4092,45.064,
180,Muli,MV,84.31,overcast clouds,2.9167,73.5667,
185,Gamba,GA,78.48,overcast clouds,-2.65,10.0,
188,Goure,NE,82.76,clear sky,13.9835,10.2704,
201,Sawakin,SD,84.02,clear sky,19.1059,37.3321,
202,Luanda,AO,77.0,broken clouds,-8.8368,13.2343,
217,Sao Felix Do Xingu,BR,75.9,scattered clouds,-6.6447,-51.995,
222,Adrar,MR,84.7,broken clouds,20.5022,-10.0711,
224,Marawi,PH,76.5,overcast clouds,7.9986,124.2928,
237,Miraflores,MX,84.02,broken clouds,19.2167,-98.8083,
241,Hurghada,EG,82.44,clear sky,27.2574,33.8129,
242,Surat,IN,85.23,overcast clouds,21.1667,72.8333,
247,Conde,BR,76.46,clear sky,-7.2597,-34.9075,
249,Taoudenni,ML,86.0,clear sky,22.6783,-3.9836,
250,Mozarlandia,BR,80.4,broken clouds,-14.7447,-50.5706,
256,Dzilam Gonzalez,MX,86.31,clear sky,21.2833,-88.9333,
262,Santa Cruz,BO,80.65,scattered clouds,-17.8,-63.1667,
263,La Ceiba,HN,87.62,few clouds,15.7597,-86.7822,
264,Les Cayes,HT,76.71,clear sky,18.2,-73.75,
265,Rajakhera,IN,86.81,clear sky,26.8961,78.1714,
267,Lachi,PK,83.23,scattered clouds,33.3833,71.3386,
268,Dhadar,IN,85.75,clear sky,28.3305,75.0632,
271,Savannah Bight,HN,82.44,broken clouds,16.45,-85.85,
277,Adre,TD,79.14,few clouds,13.4667,22.2,
278,Bodden Town,KY,84.99,few clouds,19.2833,-81.25,
282,Guanare,VE,80.62,broken clouds,9.0418,-69.7421,
284,Sur,OM,86.61,clear sky,22.5667,59.5289,
285,Damaturu,NG,86.79,overcast clouds,11.747,11.9608,
292,Kilindoni,TZ,80.89,light rain,-7.9139,39.6668,
294,Araguaina,BR,75.31,scattered clouds,-7.1911,-48.2072,
296,Tiznit,MA,77.52,broken clouds,29.5833,-9.5,
299,Dessalines,HT,76.64,clear sky,19.2833,-72.5,
301,Mahibadhoo,MV,84.13,overcast clouds,3.7833,72.9667,
303,Tessalit,ML,79.59,clear sky,20.1986,1.0114,
306,Pajan,EC,75.29,overcast clouds,-1.5667,-80.4167,
310,Dwarka,IN,81.54,broken clouds,22.2394,68.9678,
313,Utmanzai,PK,77.61,scattered clouds,34.188,71.7629,
317,Kankon,IN,82.49,moderate rain,15.0167,74.0167,
318,Chirongui,YT,80.53,scattered clouds,-12.9319,45.1483,
321,Batticaloa,LK,82.15,overcast clouds,7.7102,81.6924,
322,Umred,IN,88.09,overcast clouds,20.85,79.3333,
324,Tucupita,VE,77.22,scattered clouds,9.0622,-62.051,
325,Porto Walter,BR,78.94,overcast clouds,-8.2686,-72.7439,
332,Sarai Alamgir,PK,82.45,clear sky,32.9012,73.7559,
334,Wisconsin Rapids,US,81.39,broken clouds,44.3836,-89.8174,
345,Harper,LR,80.04,broken clouds,4.375,-7.7169,
350,Iquitos,PE,78.84,broken clouds,-3.7481,-73.2472,
353,Malakwal,PK,83.64,few clouds,32.5536,73.2123,
354,Lloro,CO,75.22,light rain,5.4961,-76.5495,
355,Palani,IN,78.69,moderate rain,10.4667,77.5333,
357,Bilma,NE,89.65,clear sky,18.6853,12.9164,
361,Oranjestad,AW,82.35,few clouds,12.524,-70.027,
366,Bom Jesus Da Lapa,BR,76.64,scattered clouds,-13.255,-43.4181,
367,Fomboni,KM,81.63,scattered clouds,-12.28,43.7425,
372,Dabwali,IN,87.28,clear sky,29.95,74.7333,
381,Buraydah,SA,75.65,clear sky,26.326,43.975,
383,Nortelandia,BR,80.1,broken clouds,-14.4547,-56.8028,
386,Salalah,OM,82.49,clear sky,17.0151,54.0924,
387,Takoradi,GH,79.86,overcast clouds,4.8845,-1.7554,
389,Touros,BR,77.05,scattered clouds,-5.1989,-35.4608,
391,Kodar,IN,86.41,overcast clouds,16.9833,79.9667,
392,Eyl,SO,82.92,light rain,7.9803,49.8164,
393,Kutum,SD,77.41,clear sky,14.2,24.6667,
398,Rampura,IN,85.23,clear sky,30.25,75.2333,
401,Giddarbaha,IN,86.61,clear sky,30.2,74.6667,
402,Pemba,MZ,75.9,few clouds,-12.974,40.5178,
404,Lockport,US,81.16,clear sky,41.5895,-88.0578,
409,Sinnamary,GF,77.29,few clouds,5.3833,-52.95,
412,Ladario,BR,81.36,scattered clouds,-19.0047,-57.6017,
419,Umm Kaddadah,SD,82.81,broken clouds,13.6017,26.6876,
422,Saint Anthony,US,87.69,broken clouds,45.0205,-93.218,
424,Hamilton,US,76.95,clear sky,39.1834,-84.5333,
430,Micheweni,TZ,78.69,light rain,-4.9667,39.8333,
431,Karaton,ID,78.13,overcast clouds,-6.3424,106.1045,
432,Bubaque,GW,77.45,light rain,11.2833,-15.8333,
433,Boa Vista,BR,80.58,broken clouds,2.8197,-60.6733,
434,Itarema,BR,75.76,overcast clouds,-2.9248,-39.9167,
440,Kakrala,IN,84.85,clear sky,27.9,79.2,
447,Khairpur Nathan Shah,PK,87.85,few clouds,27.0936,67.7337,
448,Khulna,BD,77.99,overcast clouds,22.8135,89.5672,
454,Lethem,GY,80.49,overcast clouds,3.3803,-59.7968,
457,Khuzdar,PK,79.18,clear sky,27.7384,66.6434,
458,Oussouye,SN,77.18,light rain,12.485,-16.5469,
460,Moussoro,TD,89.56,clear sky,13.6408,16.4901,
461,Iracoubo,GF,77.0,few clouds,5.4802,-53.2011,
464,Utinga,BR,77.4,scattered clouds,-5.8172,-35.3954,
470,Urbana,US,80.69,few clouds,40.1106,-88.2073,
472,San Andres,CO,84.22,few clouds,12.5847,-81.7006,
479,Sokoni,TZ,81.18,clear sky,-6.4333,39.55,
481,Collierville,US,83.73,clear sky,35.042,-89.6645,
483,Cartagena,CO,85.62,scattered clouds,10.3997,-75.5144,
484,Mecca,SA,84.56,clear sky,21.4267,39.8261,
485,Spanish Town,JM,82.02,broken clouds,17.9911,-76.9574,
486,San Miguel,SV,81.5,overcast clouds,13.4833,-88.1833,
491,Matara,LK,81.0,overcast clouds,5.9485,80.5353,
497,Coro,VE,80.67,overcast clouds,11.4045,-69.6734,
500,Olinda,BR,78.53,scattered clouds,-8.0089,-34.8553,
507,Hambantota,LK,81.45,overcast clouds,6.1241,81.1185,
511,Kulhudhuffushi,MV,85.28,overcast clouds,6.6221,73.07,
512,Bougouni,ML,87.55,overcast clouds,11.417,-7.479,
513,Gao,ML,85.53,clear sky,16.6362,1.637,
515,Black River,JM,79.9,scattered clouds,18.0264,-77.8487,
523,Biltine,TD,85.24,clear sky,14.5333,20.9167,
524,Bouna,CI,75.45,overcast clouds,9.2667,-3.0,
526,Ciudad Bolivar,VE,88.48,broken clouds,8.1222,-63.5497,
534,Bud,US,80.55,broken clouds,39.447,-86.1758,
542,Bambey,SN,75.25,few clouds,14.6955,-16.4493,
544,Puerto El Triunfo,SV,83.03,overcast clouds,13.2833,-88.55,
551,Una,IN,80.53,overcast clouds,20.8167,71.0333,
561,Santa Maria Da Boa Vista,BR,77.83,overcast clouds,-8.8078,-39.8256,
564,Villa Del Rosario,CO,82.78,broken clouds,7.8339,-72.4742,
567,Kangaba,ML,87.85,few clouds,11.9333,-8.4167,
572,Bhimunipatnam,IN,83.71,overcast clouds,17.8833,83.4333,
578,Santa Rosa,PH,88.09,scattered clouds,14.3122,121.1114,
581,Guanica,PR,81.5,few clouds,17.9716,-66.908,
582,Robertson,US,79.25,clear sky,36.5167,-86.8667,
583,Maceio,BR,78.24,broken clouds,-9.6658,-35.7353,
584,Kidal,ML,83.66,clear sky,18.4411,1.4078,
585,Sanchor,IN,77.72,clear sky,24.7553,71.7722,
587,Lubao,PH,85.71,clear sky,14.9167,120.55,
589,Omboue,GA,79.0,light rain,-1.5746,9.2618,
590,Jhalawar,IN,89.56,scattered clouds,24.6,76.15,
593,Edd,ER,84.0,clear sky,13.9297,41.6925,
595,San Cayetano,CO,85.08,broken clouds,7.8771,-72.6243,
599,Elat,IL,75.04,clear sky,29.5581,34.9482,
604,Chakia,IN,80.26,few clouds,26.4167,85.05,
608,Sao Jose Da Coroa Grande,BR,77.05,overcast clouds,-8.8978,-35.1478,
611,Birao,CF,84.94,overcast clouds,10.2849,22.7882,
612,Dullewala,PK,89.29,broken clouds,31.8359,71.4362,
614,Banda Aceh,ID,81.21,overcast clouds,5.5577,95.3222,
616,Libreville,GA,82.42,scattered clouds,0.3925,9.4537,
621,Acarau,BR,76.32,overcast clouds,-2.8856,-40.12,
630,Dhangadhi,NP,81.46,clear sky,28.7079,80.5961,
637,Kalmunai,LK,81.16,overcast clouds,7.4167,81.8167,
646,Sao Miguel Do Araguaia,BR,76.24,scattered clouds,-13.275,-50.1628,
647,Leogane,HT,84.4,clear sky,18.5108,-72.6339,
654,Los Llanitos,HN,86.45,overcast clouds,13.2869,-87.3344,
656,Brokopondo,SR,75.79,light rain,4.75,-55.1667,
661,Santa Cruz De Tenerife,ES,76.6,clear sky,28.4682,-16.2546,
662,Benguela,AO,75.54,clear sky,-12.5763,13.4055,
665,Bull Savanna,JM,76.46,few clouds,17.8868,-77.5902,
669,Jaisalmer,IN,82.45,clear sky,26.9147,70.9181,
673,Guhagar,IN,81.7,overcast clouds,17.4842,73.1929,
676,Upata,VE,81.19,broken clouds,8.0086,-62.3989,
678,Talagang,PK,82.45,clear sky,32.9297,72.4158,
680,Zamora,EC,79.84,light rain,-4.0692,-78.9567,
682,Bahia Honda,CU,78.13,scattered clouds,22.9036,-83.1592,
686,Padampur,IN,89.04,clear sky,29.6833,73.6167,
696,Minna,NG,75.63,overcast clouds,9.6139,6.5569,
701,Vandavasi,IN,85.05,heavy intensity rain,12.5,79.6167,
703,Ottappalam,IN,78.01,moderate rain,10.7667,76.3833,
709,Dahegam,IN,87.57,overcast clouds,23.1667,72.8167,
711,The Valley,AI,82.26,few clouds,18.217,-63.0578,
713,Tutoia,BR,75.7,overcast clouds,-2.7619,-42.2744,
719,Satipo,PE,75.22,broken clouds,-11.2522,-74.6386,
720,Am Timan,TD,89.1,overcast clouds,11.0297,20.2827,
721,Parrita,CR,80.42,overcast clouds,9.5201,-84.3225,
729,Winnetka,US,81.12,scattered clouds,42.1081,-87.7359,
730,Dhar,IN,85.17,overcast clouds,22.6,75.3,
732,Monrovia,LR,79.36,broken clouds,6.3005,-10.7969,
733,Doha,QA,80.49,clear sky,25.2867,51.5333,
734,Garwa,IN,81.01,clear sky,24.1833,83.8167,
739,Kedougou,SN,82.98,clear sky,12.5579,-12.1743,
740,San-Pedro,CI,79.54,broken clouds,4.7485,-6.6363,
749,Dibulla,CO,80.1,broken clouds,11.2725,-73.3091,
758,Rudbar,AF,77.38,clear sky,30.15,62.6,
769,Mokolo,CM,84.18,overcast clouds,10.7398,13.8019,
774,Bosaso,SO,81.01,scattered clouds,11.2842,49.1816,
775,Kuntaur,GM,87.44,overcast clouds,13.6667,-14.8833,
781,Meulaboh,ID,77.74,overcast clouds,4.1363,96.1285,
782,Puerto Gaitan,CO,78.35,scattered clouds,4.3133,-72.0816,
792,Sao Raimundo Nonato,BR,75.45,broken clouds,-9.0153,-42.6994,
798,Marco,US,84.0,clear sky,25.9726,-81.729,
800,Waw,SS,77.67,overcast clouds,7.7029,27.9953,
808,Ndele,CF,76.6,broken clouds,8.4109,20.6473,
819,Trincomalee,LK,83.05,overcast clouds,8.5711,81.2335,
820,Nisia Floresta,BR,75.72,scattered clouds,-6.0911,-35.2086,
822,Goundam,ML,82.24,scattered clouds,16.4145,-3.6708,
823,Bonaberi,CM,78.26,moderate rain,4.0779,9.6759,
824,Pitimbu,BR,77.72,broken clouds,-7.4706,-34.8086,
829,Lobito,AO,76.39,clear sky,-12.3481,13.5456,
831,Manavalakurichi,IN,81.07,moderate rain,8.1333,77.3,
833,Bhadrapur,NP,76.19,broken clouds,26.544,88.0944,
834,Azua,DO,75.88,clear sky,18.4532,-70.7349,
841,High Rock,BS,75.16,broken clouds,26.6208,-78.2833,
842,Razam,IN,82.13,overcast clouds,18.4667,83.6667,
845,Cullman,US,76.1,clear sky,34.1748,-86.8436,
846,Yenagoa,NG,76.78,overcast clouds,4.9247,6.2642,
849,Aswan,EG,87.1,clear sky,24.0934,32.907,
857,Tabuk,PH,81.21,clear sky,17.4189,121.4443,
858,Kapoeta,SS,78.64,overcast clouds,4.7717,33.5903,
861,Tabou,CI,80.11,scattered clouds,4.423,-7.3528,
866,Dunmore Town,BS,76.03,scattered clouds,25.5,-76.65,
869,Loanda,AO,75.18,light rain,-8.8368,13.2343,
871,Changanacheri,IN,76.71,moderate rain,9.4667,76.55,
872,San Juan Nepomuceno,CO,79.81,overcast clouds,9.9516,-75.082,
873,Maragogi,BR,76.6,overcast clouds,-9.0122,-35.2225,
874,Riberalta,BO,75.34,overcast clouds,-10.9833,-66.1,
875,Pizarro,CO,80.4,light rain,4.9533,-77.366,
881,Agra,IN,87.89,clear sky,27.1833,78.0167,
884,Harindanga,IN,81.77,overcast clouds,22.0383,88.3214,
890,Bela,IN,88.34,scattered clouds,25.9333,81.9833,
898,Lagos,NG,77.32,light rain,6.5833,3.75,
899,Abonnema,NG,78.55,broken clouds,4.7084,6.7931,
903,Gorakhpur,IN,87.67,clear sky,29.45,75.6833,
905,Barcarena,BR,75.56,moderate rain,-1.5058,-48.6258,
927,El Penon,CO,80.22,overcast clouds,8.9892,-73.9486,
935,Bhadrachalam,IN,86.99,overcast clouds,17.6667,80.8833,
938,Jibuti,DJ,80.44,few clouds,11.5,42.5,
942,Beberibe,BR,79.92,overcast clouds,-4.1797,-38.1306,
948,Mancio Lima,BR,76.55,broken clouds,-7.6142,-72.8958,
950,Narasannapeta,IN,81.63,broken clouds,18.4167,84.05,
953,Koungou,YT,80.31,broken clouds,-12.7336,45.2042,
954,Bajil,YE,85.68,clear sky,15.0584,43.2851,
958,Venadillo,CO,77.11,light rain,4.7193,-74.9292,
959,Tikamgarh,IN,85.33,clear sky,24.745,78.8333,
961,Datia,IN,87.71,clear sky,25.6667,78.4667,
968,Pushkar,IN,79.68,clear sky,26.5,74.55,
970,Raga,SS,78.96,overcast clouds,8.4596,25.678,
972,Iranshahr,IR,77.59,clear sky,27.2025,60.6848,
978,Haines City,US,79.99,clear sky,28.1142,-81.6179,
982,Samana,DO,78.94,clear sky,19.2056,-69.3369,
989,Barinas,VE,78.06,broken clouds,8.6226,-70.2075,
991,Abu Dhabi,AE,81.97,clear sky,24.4667,54.3667,
993,Eufaula,US,75.33,clear sky,31.8913,-85.1455,
1003,Barmer,IN,77.81,clear sky,25.75,71.3833,
1008,Ghugus,IN,86.36,overcast clouds,19.9333,79.1333,
1011,Tamandare,BR,76.84,overcast clouds,-8.7597,-35.1047,
1014,Malkapur,IN,87.48,overcast clouds,20.8833,76.2,
1019,Sandur,IN,77.18,overcast clouds,15.1,76.55,
1021,Zaraza,VE,82.0,overcast clouds,9.3503,-65.3245,
1024,Faridpur,BD,77.2,overcast clouds,23.6,89.8333,
1025,Porto Novo,BJ,79.59,light rain,6.4965,2.6036,
1026,Puerto Carreno,CO,79.47,overcast clouds,6.189,-67.4859,
1028,Kombissiri,BF,87.12,scattered clouds,12.0656,-1.3375,
1032,Aurangabad,IN,83.88,broken clouds,19.8833,75.3333,
1034,Riohacha,CO,81.91,scattered clouds,11.5444,-72.9072,
1045,Pen,IN,86.04,overcast clouds,18.75,73.0833,
1048,Pedernales,DO,79.92,clear sky,18.0384,-71.744,
1051,Mayumba,GA,77.83,broken clouds,-3.432,10.6554,
1052,Colimes,EC,78.69,light rain,-1.55,-80.0167,
1055,Conakry,GN,79.54,moderate rain,9.538,-13.6773,
1056,Haldia,IN,81.81,overcast clouds,22.0605,88.1097,
1061,Kassala,SD,84.61,broken clouds,15.451,36.4,
1065,Doka,SD,89.13,overcast clouds,13.5167,35.7667,
1067,Rajur,IN,87.04,overcast clouds,20.1167,78.9167,
1069,Pointe Michel,DM,79.29,scattered clouds,15.25,-61.3833,
1072,Nioro,GM,81.45,overcast clouds,13.35,-15.75,
1073,Key Largo,US,79.99,scattered clouds,25.0865,-80.4473,
1075,Savelugu,GH,83.41,broken clouds,9.6244,-0.8253,
1080,Brazzaville,CG,76.37,light rain,-4.2658,15.2832,
1085,Santa Marta,CO,85.89,scattered clouds,11.2408,-74.199,
1097,Tougan,BF,89.17,few clouds,13.0667,-3.0667,
1101,Sarankhola,BD,76.91,overcast clouds,22.3082,89.7897,
1116,Puerto Colombia,CO,82.49,scattered clouds,10.9878,-74.9547,
1119,Terre Haute,US,77.27,clear sky,39.4667,-87.4139,
1124,Nizwa,OM,81.81,clear sky,22.9333,57.5333,
1126,Mandera,KE,80.64,broken clouds,3.9366,41.867,
1128,Sarh,TD,82.96,overcast clouds,9.1429,18.3923,
1131,Mutis,CO,81.19,light rain,6.2262,-77.4044,
1133,Robertsport,LR,80.26,light rain,6.7533,-11.3686,
1149,Wanlaweyn,SO,77.65,overcast clouds,2.6185,44.8938,
1155,Sagua De Tanamo,CU,76.59,clear sky,20.5819,-75.2414,
1156,Bushehr,IR,75.34,clear sky,28.9684,50.8385,
1157,Neiba,DO,75.97,clear sky,18.5,-71.4167,
1168,Douentza,ML,84.06,broken clouds,14.9951,-2.9517,
1172,Saint Cloud,US,77.0,broken clouds,45.5608,-94.1625,
1175,Mana,GF,76.91,few clouds,5.6592,-53.7767,
1176,Fuerte Olimpo,PY,78.96,scattered clouds,-21.0415,-57.8738,
1178,Agadez,NE,87.93,clear sky,19.75,10.25,
1185,Jalalpur,PK,76.87,smoke,32.6374,74.2183,
1187,Khagaria,IN,79.12,clear sky,25.5,86.4833,
1192,Owensboro,US,78.85,clear sky,37.7742,-87.1133,
1197,Limon,CR,84.09,scattered clouds,10.0,-83.0333,
1210,Yarada,IN,84.52,light rain,17.65,83.2667,
1211,Cockburn Town,TC,79.57,overcast clouds,21.4612,-71.1419,
1214,Grenville,GD,79.93,scattered clouds,12.1167,-61.6167,
1220,Jizan,SA,82.85,clear sky,17.3333,42.6667,
1222,Berbera,SO,83.19,scattered clouds,10.4396,45.0143,
1223,Salvador,SV,79.2,overcast clouds,13.8333,-88.9167,
1224,Puri,IN,81.12,broken clouds,19.8,85.85,
1231,Aquiraz,BR,78.19,overcast clouds,-3.9014,-38.3911,
1238,Mateare,NI,82.24,overcast clouds,12.2351,-86.4281,
1242,Umuahia,NG,75.9,broken clouds,5.5263,7.4896,
1247,Osmanabad,IN,84.61,overcast clouds,18.1667,76.05,
1252,Chhatapur,IN,78.46,scattered clouds,26.2167,87.0167,
1258,Keti Bandar,PK,80.83,clear sky,24.1447,67.4497,
1262,Veraval,IN,81.09,overcast clouds,20.9,70.3667,
1263,Kontagora,NG,78.01,overcast clouds,10.3999,5.4695,
1264,Kharan,PK,84.09,few clouds,28.5833,65.4167,
1265,Dhidhdhoo,MV,85.55,overcast clouds,6.8833,73.1,
1269,Alice Town,BS,77.09,broken clouds,25.7167,-79.3,
1271,Gopalpur,IN,80.94,broken clouds,19.2667,84.9167,
1273,Kollam,IN,80.4,moderate rain,8.8833,76.6,
1280,Himatnagar,IN,82.33,broken clouds,23.6,72.95,
1284,Venice,US,83.1,clear sky,27.0998,-82.4543,
1292,Latehar,IN,75.7,clear sky,23.75,84.5,
1293,Los Arabos,CU,78.33,broken clouds,22.7281,-80.7214,
1295,El Molino,CO,77.22,overcast clouds,10.6523,-72.924,
1304,Cabedelo,BR,75.87,broken clouds,-6.9811,-34.8339,
1306,Hajipur,IN,78.78,mist,25.6833,85.2167,
1307,Baleshwar,IN,81.55,overcast clouds,21.4942,86.9317,
1308,Niamtougou,TG,76.05,light rain,9.7681,1.1053,
1311,Muisne,EC,76.23,overcast clouds,0.6,-80.0333,
1314,Garissa,KE,77.4,broken clouds,-0.4536,39.6401,
1327,Villa Bruzual,VE,78.08,overcast clouds,9.3328,-69.1208,
1328,Anse-Bertrand,GP,78.62,clear sky,16.4721,-61.5078,
1329,Jiwani,PK,82.47,clear sky,25.05,61.7417,
1331,Tahta,EG,77.59,broken clouds,26.7693,31.5021,
1333,Nuevo Vigia,PA,81.52,broken clouds,9.2447,-79.6086,
1335,Buchanan,LR,79.21,broken clouds,5.8808,-10.0467,
1337,Malakal,SS,82.08,overcast clouds,9.5334,31.6605,
1339,Kankan,GN,82.11,broken clouds,10.3854,-9.3057,
1340,Trairi,BR,75.4,overcast clouds,-3.2778,-39.2689,
1342,Hounde,BF,86.61,clear sky,11.5,-3.5167,
1350,Taraza,CO,77.4,overcast clouds,7.5836,-75.4007,
1354,Ugoofaaru,MV,84.85,overcast clouds,5.6667,73.0,
1365,Gusau,NG,83.73,overcast clouds,12.1628,6.6614,
1374,Bansang,GM,87.06,overcast clouds,13.4333,-14.65,
1383,Wagar,SD,83.82,few clouds,16.1525,36.2032,
1387,Turbat,PK,87.96,clear sky,26.0023,63.044,
1395,Gogrial,SS,83.16,overcast clouds,8.5332,28.1004,
1396,Diffa,NE,87.24,few clouds,13.3154,12.6113,
1402,Eydhafushi,MV,84.63,overcast clouds,5.1033,73.0708,
1404,Ikom,NG,76.19,light rain,5.9667,8.7063,
1405,Upala,CR,83.46,broken clouds,10.8979,-85.0145,
1406,Jati,PK,80.44,clear sky,24.3539,68.2671,
1408,Bonoua,CI,76.62,overcast clouds,5.2741,-3.595,
1409,Demerval Lobao,BR,78.21,broken clouds,-5.3583,-42.6764,
1412,Mazagao,BR,78.85,light rain,-0.115,-51.2894,
1430,Esna,EG,82.8,overcast clouds,25.2934,32.554,
1434,Safaga,EG,80.11,broken clouds,26.7292,33.9365,
1435,Porbandar,IN,81.34,broken clouds,21.6422,69.6093,
1437,Bentiu,SS,82.17,overcast clouds,9.2333,29.8333,
1440,Bali,ID,83.37,broken clouds,-8.5,115.0,
1441,Baillif,GP,78.3,few clouds,16.0202,-61.7463,
1444,Necocli,CO,79.79,overcast clouds,8.4234,-76.786,
1448,Manaure,CO,87.01,scattered clouds,11.7751,-72.4445,
1454,Garowe,SO,83.77,overcast clouds,8.4054,48.4845,
1458,Saint-Louis,SN,77.68,overcast clouds,16.3333,-15.0,
1463,Lodwar,KE,86.99,broken clouds,3.1191,35.5973,
1466,Ibra,OM,80.42,clear sky,22.6906,58.5334,
1467,Iberia,US,86.05,clear sky,29.9502,-91.7507,
1469,Rantoul,US,78.82,scattered clouds,40.3084,-88.1559,
1473,Qandala,SO,83.8,scattered clouds,11.472,49.8728,
1479,Dorado,PR,82.29,scattered clouds,18.4588,-66.2677,
1489,Marakkanam,IN,84.02,heavy intensity rain,12.2,79.95,
1490,Contai,IN,81.84,overcast clouds,21.7786,87.7536,
1495,Sao Luis Do Quitunde,BR,76.44,overcast clouds,-9.3183,-35.5611,
1496,Dalbandin,PK,84.81,clear sky,28.8947,64.4101,
1497,Bacalar,MX,86.11,broken clouds,18.6667,-88.3833,
1498,Maturin,VE,80.35,overcast clouds,9.75,-63.1767,
1507,Wattegama,LK,77.07,overcast clouds,6.7989,81.4808,
1515,Sabang,ID,84.2,overcast clouds,5.8933,95.3214,
1519,Kpandu,GH,77.54,light rain,6.9954,0.2931,
1527,Bagepalli,IN,77.74,moderate rain,13.7847,77.7931,
1533,Ler,SS,77.65,broken clouds,8.3018,30.1418,
1534,Moroni,KM,79.5,scattered clouds,-11.7022,43.2551,
1536,Bridgetown,BB,81.09,scattered clouds,13.1,-59.6167,
1545,Rock Sound,BS,76.84,clear sky,24.9,-76.2,
1550,Benton Harbor,US,77.65,clear sky,42.1167,-86.4542,
1558,Manali,IN,82.49,very heavy rain,13.1667,80.2667,
1564,Yondo,CO,80.4,broken clouds,7.0062,-73.9097,
1566,Sandi,IN,85.12,clear sky,27.3,79.95,
1574,Cumana,VE,79.11,broken clouds,10.4635,-64.1775,
1576,Port Loko,SL,77.02,light rain,8.7667,-12.7833,
1581,Kudahuvadhoo,MV,84.24,overcast clouds,2.6708,72.8944,
1584,Puerto Cabezas,NI,80.22,scattered clouds,14.0351,-83.3888,
1585,Rubio,VE,76.05,overcast clouds,7.7013,-72.3557,
1586,Aden,YE,83.93,clear sky,12.7794,45.0367,
1598,Jaque,PA,81.68,light rain,7.5175,-78.1703,
1599,Shirgaon,IN,81.93,broken clouds,19.7,72.7,
1601,Road Town,VG,80.69,few clouds,18.4167,-64.6167,
1612,Cansahcab,MX,86.88,clear sky,21.1667,-89.1,
1615,Japura,ID,76.6,broken clouds,-0.3167,102.35,
1618,Funadhoo,MV,85.03,overcast clouds,6.15,73.2667,
1621,Pabbi,PK,75.88,few clouds,34.0106,71.7989,
1623,Najran,SA,75.85,clear sky,17.4924,44.1277,
1632,Nokha,IN,84.7,clear sky,27.6,73.4167,
1635,Boca Do Acre,BR,76.17,broken clouds,-8.7522,-67.3978,
1637,Marigot,MF,80.74,few clouds,18.0667,-63.0833,
1652,Numan,NG,80.08,overcast clouds,9.4667,12.0333,
1661,Zabid,YE,85.12,few clouds,14.1951,43.3152,
1666,Galiakot,IN,88.83,broken clouds,23.5167,74.0,
1668,Camocim,BR,75.72,overcast clouds,-2.9022,-40.8411,
1669,Campoverde,PE,83.89,broken clouds,-8.4753,-74.8058,
1673,Arvi,IN,89.1,overcast clouds,20.9833,78.2333,
1674,Dangriga,BZ,82.09,overcast clouds,16.9692,-88.2321,
1685,Andros Town,BS,77.77,scattered clouds,24.7,-77.7667,
1689,Canutama,BR,77.63,heavy intensity rain,-6.5339,-64.3831,
1691,Minab,IR,77.47,clear sky,27.1467,57.0801,
1692,Daulatpur,PK,84.42,clear sky,26.5015,67.9706,
1694,Dori,BF,89.37,clear sky,14.0354,-0.0345,
1697,Bonfim,BR,79.97,overcast clouds,3.0833,-59.95,
1698,Mangrol,IN,81.18,broken clouds,21.1167,70.1167,
1699,Rameswaram,IN,86.52,moderate rain,9.2833,79.3,
1702,Jhansi,IN,87.64,clear sky,25.4333,78.5833,
1706,Nicoya,CR,81.9,broken clouds,10.1483,-85.452,
1714,Manaus,BR,79.3,clear sky,-3.1019,-60.025,
1715,El Sauce,NI,81.75,overcast clouds,12.8869,-86.539,
1721,Atrauli,IN,85.08,clear sky,28.0333,78.2833,
1723,Isla Mujeres,MX,82.45,clear sky,21.2311,-86.731,
1730,Kongoussi,BF,88.83,few clouds,13.3258,-1.5347,
1732,Parambu,BR,79.05,overcast clouds,-6.2111,-40.6944,
1734,Oistins,BB,80.69,scattered clouds,13.0667,-59.5333,
1735,Jawhar,SO,77.65,overcast clouds,2.7809,45.5005,
1741,Ormara,PK,81.45,clear sky,25.2088,64.6357,
1746,Hatillo,PR,82.02,few clouds,18.4863,-66.8254,
1747,La Primavera,CO,78.73,broken clouds,5.4906,-70.4092,
1750,Ayorou,NE,87.8,clear sky,14.7308,0.9174,
1757,Roxana,CR,81.03,broken clouds,10.2753,-83.7513,
1761,Edea,CM,75.76,overcast clouds,3.8,10.1333,
1764,Iranduba,BR,79.12,broken clouds,-3.2847,-60.1861,
1768,Begowal,IN,80.76,clear sky,31.6167,75.5167,
1770,Lafiagi,NG,77.7,overcast clouds,8.8667,5.4167,
1773,Ukwa,IN,75.85,few clouds,21.9667,80.4667,
1775,Ipanguacu,BR,77.99,heavy intensity rain,-5.4983,-36.855,
1779,Maine-Soroa,NE,85.78,scattered clouds,13.2114,12.0241,
1781,Anuradhapura,LK,79.99,overcast clouds,8.3565,80.4173,
1788,Sann,PK,78.71,clear sky,26.0418,68.1378,
1789,Lucea,JM,82.26,broken clouds,18.451,-78.1736,
1793,Totness,SR,77.63,overcast clouds,5.8833,-56.3167,
1796,Isabela,PH,78.85,moderate rain,6.7085,121.9711,
1797,Chunhuhub,MX,88.5,broken clouds,19.55,-88.6833,
1798,Macara,EC,76.17,broken clouds,-4.3833,-79.95,
1802,Gadwal,IN,86.52,overcast clouds,16.2333,77.8,
1807,Gola Gokarannath,IN,83.1,clear sky,28.0833,80.4667,
1813,Tambacounda,SN,86.05,clear sky,13.7539,-13.7586,
1815,Xique-Xique,BR,81.18,broken clouds,-10.8218,-42.7263,
1823,Lamu,KE,80.82,scattered clouds,-2.2717,40.902,
1829,Bata,GQ,80.24,moderate rain,1.8639,9.7658,
1831,Banfora,BF,83.48,broken clouds,10.6333,-4.7667,
1837,Arima,TT,81.63,few clouds,10.6333,-61.2833,
1840,Oeiras,BR,82.4,overcast clouds,-7.0253,-42.1311,
1841,Alappuzha,IN,80.02,moderate rain,9.49,76.3264,
1843,Rosa Zarate,EC,75.49,light rain,0.3333,-79.4667,
1851,Aracati,BR,79.92,overcast clouds,-4.5617,-37.7697,
